id	name	authId	authSource	lat	lng
GAZ-2289310	Aachen	2289310	GAZ	50.77664	6.08342
DE-611-27339	Adria	27339	DE-611	null	null
DE-611-27345	Agnone	27345	DE-611	null	null
DE-611-26332	Al-Q¯ahirah	26332	DE-611	null	null
GAZ-2359903	Albano Laziale	2359903	GAZ	41.729998	12.658954
GAZ-4079681-4	Albano Laziale	4079681-4	GAZ	41.729998	12.658954
GAZ-2042806	Alexandria	2042806	GAZ	31.21564	29.95527
DE-611-11267	Alger	11267	DE-611	null	null
DE-611-3872	Altenburg	3872	DE-611	null	null
GAZ-2278958	Altona	2278958	GAZ	53.578802	9.875866
GAZ-2086547	Amalfi	2086547	GAZ	40.6349	14.60238
GND-7551178-2	Amarousion	7551178-2	GND	null	null
DE-611-27394	Amelia	27394	DE-611	null	null
DE-611-27228	Amiens	27228	DE-611	null	null
GAZ-2086597	Anagni	2086597	GAZ	41.7435	13.15542
GAZ-2345149	Ancona	2345149	GAZ	43.617132	13.517861
GAZ-2102269	Andritsena	2102269	GAZ	37.48376	21.90532
GAZ-2075777	Antwerpen	2075777	GAZ	51.21989	4.40346
GAZ-2180623	Anzio	2180623	GAZ	41.451029	12.62078
GAZ-2277103	Arezzo	2277103	GAZ	43.466201	11.882229
GAZ-2072670	Ariccia	2072670	GAZ	41.720575	12.673073
DE-611-27429	Arles	27429	DE-611	null	null
DE-611-25676	Ascoli Piceno	25676	DE-611	null	null
GND-7612472-1	Assisi-Petrignano	7612472-1	GND	null	null
GAZ-2070134	Athen	2070134	GAZ	37.97945	23.71622
GAZ-2046813	Augsburg	2046813	GAZ	48.369188	10.898145
DE-611-27474	Avellino	27474	DE-611	null	null
GAZ-4014511-6	Bad Elster	4014511-6	GAZ	50.281944	12.234722
GAZ-2052026	Bad Ems	2052026	GAZ	50.333608	7.71347
DE-611-941	Bad Gastein	941	DE-611	null	null
GND-4071914-5	Bad Godesberg	4071914-5	GND	50.68457	7.153929
GAZ-2050560	Bad Harzburg	2050560	GAZ	51.87999	10.560159
GAZ-2765490	Bad Kösen	2765490	GAZ	51.135278	11.720556
GND-4102484-9	Bad Neuenahr	4102484-9	GND	50.54484	7.13386
GAZ-2052938	Bad Oldesloe	2052938	GAZ	53.81167	10.37417
GND-4049111-0	Bad Reichenhall	4049111-0	GND	47.729469	12.87819
GND-4603131-5	Bad Rippoldsau	4603131-5	GND	48.435519	8.31752
GAZ-2749100	Bad Wildbad	2749100	GAZ	48.75071	8.5504
GAZ-4066095-3	Bad Wildbad	4066095-3	GAZ	48.75071	8.5504
GND-4069065-9	Baden	4069065-9	GND	null	null
DE-611-30075	Baden (Niederösterreich)	30075	DE-611	null	null
DE-611-18662	Badgastein	18662	DE-611	null	null
DE-611-18159	Badia di Fiesole	18159	DE-611	null	null
GAZ-2749109	Bagni di Lucca	2749109	GAZ	44.00513	10.5531
GAZ-2072824	Bagnoregio	2072824	GAZ	42.628257	12.090385
DE-611-26868	Bari	26868	DE-611	null	null
GAZ-2057873	Basel	2057873	GAZ	47.5584	7.57327
DE-611-27572	Bayr¯ut	27572	DE-611	null	null
GAZ-2078337	Beaune	2078337	GAZ	47.024167	4.838889
GAZ-2046918	Berchtesgaden	2046918	GAZ	47.63236	13.00186
GAZ-2282601	Berlin	2282601	GAZ	52.52437	13.41053
GND-4087306-7	Berlin-Charlottenburg	4087306-7	GND	52.511111	13.301388
GAZ-2087441	Bern	2087441	GAZ	46.94809	7.44744
GND-4428403-2	Bettona	4428403-2	GND	43.012639	12.485459
GAZ-2749104	Blankenberge	2749104	GAZ	51.31306	3.13227
GAZ-2063131	Bludenz	2063131	GAZ	47.15556	9.820704
DE-611-5306	Bois le roi	5306	DE-611	null	null
GAZ-2178745	Bologna	2178745	GAZ	44.495345	11.342783
GAZ-2051380	Bonn	2051380	GAZ	50.737069	7.09651
GND-4088072-2	Bordeaux	4088072-2	GND	44.84044	-0.5805
GAZ-2749102	Borkum	2749102	GAZ	53.58114	6.69127
DE-611-27670	Bovino	27670	DE-611	null	null
GAZ-2347812	Bozen	2347812	GAZ	46.49067	11.33982
GAZ-2051607	Brakel	2051607	GAZ	51.716436	9.18463
GAZ-2048409	Brandenburg	2048409	GAZ	52.33333	13.2
GAZ-2050425	Braunschweig	2050425	GAZ	52.264463	10.523318
GAZ-2050427	Bremen	2050427	GAZ	53.08333	8.83333
GAZ-2765499	Brennerbad	2765499	GAZ	46.976679	11.479267
DE-611-25772	Brescia	25772	DE-611	null	null
GAZ-2108264	Breslau	2108264	GAZ	51.1	17.03333
GAZ-2084027	Brighton	2084027	GAZ	50.82838	-0.13947
DE-611-27684	Brindisi	27684	DE-611	null	null
GND-17609-6	Bromberg	17609-6	GND	53.123333	18.0075
GAZ-2087724	Brüssel	2087724	GAZ	50.85045	4.34878
GAZ-2323304	Buonconvento	2323304	GAZ	43.13314	11.48363
GND-4009107-7	Burg auf Fehmarn	4009107-7	GND	53.997079	9.25891
GAZ-2049558	Büdingen	2049558	GAZ	50.286291	9.110113
GAZ-2338739	Cagliari	2338739	GAZ	39.223646	9.125583
GND-1169360467	Caldwell House	1169360467	GND	55.733333	-4.533333
GND-4609179-8	Caminha	4609179-8	GND	41.87704	-8.83876
DE-611-27742	Campobasso	27742	DE-611	null	null
GAZ-2072830	Canino	2072830	GAZ	42.465621	11.751251
DE-611-27746	Canosa di Puglia	27746	DE-611	null	null
GAZ-2095717	Capua	2095717	GAZ	41.10519	14.21269
GAZ-2365651	Cartagena	2365651	GAZ	37.60512	-0.98623
GND-4255494-9	Casentino	4255494-9	GND	null	null
DE-611-27063	Caserta	27063	DE-611	null	null
GAZ-2047496	Castell	2047496	GAZ	49.7411	10.3508
GAZ-2337543	Castellammare di Stabia	2337543	GAZ	40.698615	14.48391
GAZ-2178782	Catania	2178782	GAZ	37.50579	15.090752
GAZ-2282603	Charlottenburg <Berlin>	2282603	GAZ	52.517192	13.307019
GND-4229603-1	Chatham <Kent>	4229603-1	GND	null	null
DE-611-24413	Chianciano Terme	24413	DE-611	null	null
GAZ-2317211	Chieti	2317211	GAZ	42.352014	14.168673
GAZ-2337545	Chiusi	2337545	GAZ	43.01604	11.94745
GAZ-2180706	Civita Castellana	2180706	GAZ	42.29304	12.40885
GAZ-2359953	Civitavecchia	2359953	GAZ	42.09325	11.79674
GND-4010401-1	Colmar	4010401-1	GND	48.083329	7.36667
DE-611-10960	Colmar	10960	DE-611	null	null
GAZ-2042624	Constantine <Algerien>	2042624	GAZ	36365	6.61472
GAZ-2088544	Cortona	2088544	GAZ	43.27467	11.98533
DE-611-26934	Crema	26934	DE-611	null	null
GAZ-2361230	Cádiz	2361230	GAZ	36.52978	-6.29465
GAZ-2361201	Córdoba	2361201	GAZ	37.89155	-4.77275
GND-4085388-3	Dampierre	4085388-3	GND	null	null
GND-1169354815	Dampierre-en-Yvelines	1169354815	GND	48.7	1.983333
GAZ-2118366	Danzig	2118366	GAZ	54.352025	18.64663800000003
GAZ-2176104	Darmstadt	2176104	GAZ	49.871891	8.644562
GAZ-2044620	Dessau	2044620	GAZ	51.834167	12.237778
GAZ-2749106	Dillich	2749106	GAZ	50.99719	9.28806
GAZ-2057969	Donnerbühl	2057969	GAZ	46.925002	7.41528
DE-611-25888	Douai	25888	DE-611	null	null
GAZ-2044633	Dresden	2044633	GAZ	51.05089	13.73832
DE-611-25889	Dresden	25889	DE-611	null	null
GAZ-2088729	Dublin	2088729	GAZ	53.33306	-6.24889
GAZ-2424911	Düsseldorf	2424911	GAZ	51.22172	6.77616
GAZ-2129080	Eboli	2129080	GAZ	40.61421	15.05785
GAZ-2765551	Eclépens	2765551	GAZ	46.65251	6.525557
GAZ-2052332	Eisenach	2052332	GAZ	50.9807	10.31522
GAZ-2116134	Erfurt	2116134	GAZ	50.9787	11.03283
GAZ-2047226	Erlangen	2047226	GAZ	49.59099	11.00783
GAZ-2088961	Fano	2088961	GAZ	43.84052	13.01665
DE-611-28048	Ferentino	28048	DE-611	null	null
DE-611-27068	Fermo	27068	DE-611	null	null
GAZ-2338725	Ferrara	2338725	GAZ	44.836645	11.62066
GAZ-2089042	Fiesole	2089042	GAZ	43.80455	11.29487
GAZ-2359590	Florenz	2359590	GAZ	43.77925	11.24626
GAZ-4017581-9	Florenz	4017581-9	GAZ	43.77925	11.24626
DE-611-28067	Foggia	28067	DE-611	null	null
GAZ-2180906	Foligno	2180906	GAZ	42.95324	12.70664
GAZ-2338554	Forlì	2338554	GAZ	44.218572	12.050733
GAZ-2089310	Frankfurt am Main	2089310	GAZ	50.114203	8.676657
GAZ-2338558	Frascati	2338558	GAZ	41.807364	12.68104
GAZ-2045617	Freiburg im Breisgau	2045617	GAZ	47.9959	7.85222
GND-10175674-4	Freiwaldau <Niederschlesien>	10175674-4	GND	null	null
DE-611-28108	Gaeta	28108	DE-611	null	null
GND-4223740-3	Gaiole in Chianti	4223740-3	GND	43.46544	11.435629
DE-611-28114	Gallipoli	28114	DE-611	null	null
GAZ-2089398	Genf	2089398	GAZ	46.20222	6.14569
GAZ-2076380	Gent	2076380	GAZ	51.054342	3.717424
GAZ-2359570	Genua	2359570	GAZ	44.397798	8.947849
DE-611-11257	Giebichenstein	11257	DE-611	null	null
GAZ-2044923	Giebichenstein <Halle (Saale)>	2044923	GAZ	51.5025	11.954444
GAZ-2176820	Gießen	2176820	GAZ	50.581984	8.670218
GAZ-2765500	Glückstadt	2765500	GAZ	53.788125	9.423989
GND-4021373-0	Gmünd <Niederösterreich>	4021373-0	GND	48.768055	14.980555
GAZ-2073655	Gossensaß	2073655	GAZ	46.93857	11.44245
GAZ-2053014	Gotha	2053014	GAZ	50.94823	10.70193
GAZ-2359867	Granada	2359867	GAZ	37.18817	-3.60667
GAZ-2049802	Greifswald	2049802	GAZ	54.096363	13.378483
GAZ-2765501	Greiz	2765501	GAZ	50.654722	12.199722
GND-4417514-0	Grottammare	4417514-0	GND	42.98875	13.86489
DE-611-27427	Gubbio	27427	DE-611	null	null
GAZ-2765488	Guşteriţa	2765488	GAZ	45.811111	24.177778
GAZ-2044647	Görlitz	2044647	GAZ	51.15518	14.98853
GAZ-2424907	Göttingen	2424907	GAZ	51.53443	9.93228
DE-611-2550	Hadamar	2550	DE-611	null	null
DE-611-55964	Hage	55964	DE-611	null	null
DE-611-3021304	Halle	3021304	DE-611	null	null
GAZ-2044919	Halle (Saale)	2044919	GAZ	51.483146	11.969423
GAZ-2052755	Hamburg	2052755	GAZ	53.549678	9.992638
GAZ-2180527	Hanau	2180527	GAZ	50.128343	8.916326
GAZ-2050656	Hannover	2050656	GAZ	52.37052	9.73322
GAZ-2045637	Heidelberg	2045637	GAZ	49.41056	8.69556
GAZ-2064754	Helsinki	2064754	GAZ	60.16952	24.93545
DE-611-5357	Hyére	5357	DE-611	null	null
GND-4253735-6	Igls	4253735-6	GND	null	null
GAZ-2063018	Innsbruck	2063018	GAZ	47.26266	11.39454
GAZ-2285315	Istanbul	2285315	GAZ	41.01384	28.94966
GAZ-4096359-7	Izmir	4096359-7	GAZ	38.41273	27.13838
GAZ-2283175	Izmir	2283175	GAZ	38.41273	27.13838
GAZ-2091659	Jelgava	2091659	GAZ	56.65	23.71278
GAZ-2053060	Jena	2053060	GAZ	50.92878	11.5899
GAZ-2734970	Karlsbad	2734970	GAZ	50.232168	12.871619
GAZ-2424900	Karlsruhe	2424900	GAZ	49.00936	8.40444
GAZ-2179801	Kassel	2179801	GAZ	51.311922	9.491599
GAZ-2052777	Kiel	2052777	GAZ	54.32133	10.13489
DE-611-26371	Klagenfurt	26371	DE-611	null	null
GAZ-2073640	Klobenstein	2073640	GAZ	46.53988	11.45933
GAZ-2090381	Kopenhagen	2090381	GAZ	55.67594	12.56553
GND-4073728-7	Korfu	4073728-7	GND	39.598055	19.852222
GND-4098741-3	Krummhübel	4098741-3	GND	50.77669	15.75594
GAZ-2051668	Köln	2051668	GAZ	50.938279	6.953133
GAZ-2090364	Königsberg	2090364	GAZ	54.70649	20.51095
DE-611-26143	Köthen	26143	DE-611	null	null
GND-4031616-6	Köthen (Anhalt)	4031616-6	GND	51.751666	11.970833
GAZ-2090575	L'Aquila	2090575	GAZ	42.35055	13.39954
DE-611-28513	Lahr	28513	DE-611	null	null
GND-4034340-6	Landsberg (Warthe)	4034340-6	GND	52.736666	15.228611
GAZ-2320145	Lecce	2320145	GAZ	40.354712	18.175058
GAZ-2086048	Leiden	2086048	GAZ	52.15833	4.49306
GAZ-2315108	Leipzig	2315108	GAZ	51.33962	12.37129
GAZ-2062677	Linz	2062677	GAZ	48.305235	14.286089
GAZ-2345198	Lissabon	2345198	GAZ	38.71667	-9.13333
GAZ-4036068-4	Liverpool	4036068-4	GAZ	53.41058	-2.97794
GAZ-2320171	Livorno	2320171	GAZ	43.54427	10.32615
GAZ-2090478	London	2090478	GAZ	51.50853	-0.12574
GND-4315034-2	London-Hackney	4315034-2	GND	51.549999	-0.05
GND-5245396-0	Loschwitz	5245396-0	GND	null	null
GAZ-2077169	Lourdes	2077169	GAZ	43095	-0.045278
DE-611-26250	Lucca	26250	DE-611	null	null
GAZ-2320160	Lucera	2320160	GAZ	41.508133	15.335498
DE-611-3003626	Luchon	3003626	DE-611	null	null
GAZ-2058266	Luzern	2058266	GAZ	47.05048	8.30635
GAZ-2080762	Lyon	2080762	GAZ	45.74846	4.84671
GAZ-2052781	Lübeck	2052781	GAZ	53.86893	10.68729
GAZ-2287703	Madrid	2287703	GAZ	40.4165	-3.70256
GAZ-2426301	Magdeburg	2426301	GAZ	52.12773	11.62916
GAZ-2091266	Mailand	2091266	GAZ	45.46427	9.18951
GAZ-2052457	Mainz	2052457	GAZ	49.999116	8.272276
DE-611-17221	Malta	17221	DE-611	null	null
GAZ-2091354	Manchester	2091354	GAZ	53.48095	-2.23743
GAZ-2045837	Mannheim	2045837	GAZ	49.49671	8.47955
GAZ-2299061	Mantua	2299061	GAZ	45.159745	10.793467
GAZ-2180601	Marburg	2180601	GAZ	50.807684	8.772256
GAZ-2080498	Marseille	2080498	GAZ	43.29695	5.38107
GAZ-2080125	Mende	2080125	GAZ	44.51667	3.5
GAZ-2073681	Meran	2073681	GAZ	46.66812	11.16127
GAZ-2299105	Messina	2299105	GAZ	38.19394	15.55256
DE-611-3022385	Mileto	3022385	DE-611	null	null
DE-611-28723	Mirabella Eclano	28723	DE-611	null	null
GND-4115170-7	Modena	4115170-7	GND	44.647829	10.92539
DE-611-28745	Molfetta	28745	DE-611	null	null
DE-611-69843	Montale	69843	DE-611	null	null
GND-4235615-5	Monte San Savino	4235615-5	GND	43.329239	11.729739
GAZ-2072585	Montecassino	2072585	GAZ	41.490431	13.813385
GND-4596617-5	Montecastrilli	4596617-5	GND	42.65243	12.488569
DE-611-28759	Montecatini Terme	28759	DE-611	null	null
DE-611-69252	Montenero di Bisaccia	69252	DE-611	null	null
DE-611-28768	Montepulciano	28768	DE-611	null	null
GND-4341625-1	Montreuil <Departement Seine-Saint-Denis>	4341625-1	GND	null	null
GAZ-2091741	Moskau	2091741	GAZ	55.75222	37.61556
DE-611-3020577	Mundart Sizilianisch <Lentini>	3020577	DE-611	null	null
GAZ-4040608-8	Münster (Westf)	4040608-8	GAZ	51.96236	7.62571
DE-611-26272	Málaga	26272	DE-611	null	null
DE-611-28639	Mâcon	28639	DE-611	null	null
DE-611-26337	München	26337	DE-611	null	null
GAZ-2047696	München	2047696	GAZ	48.137164054834535	11.57559871673584
GAZ-2180910	Narni	2180910	GAZ	42.51956	12.52758
GAZ-2116137	Naumburg (Saale)	2116137	GAZ	51.14987	11.80979
GAZ-2338719	Neapel	2338719	GAZ	40.846442	14.25156
DE-611-3021329	Nereto	3021329	DE-611	null	null
GND-4249148-4	Neumarkt <Niederschlesien>	4249148-4	GND	null	null
GAZ-2052787	Neumünster	2052787	GAZ	54.071396	9.989997
GAZ-2052508	Neuwied	2052508	GAZ	50.4336	7.47057
DE-611-54298	New York	54298	DE-611	null	null
GAZ-2090485	New York, NY	2090485	GAZ	40.71427	-74.00597
GND-4117851-8	Newcastle-under-Lyme	4117851-8	GND	53.0	-2.23333
DE-611-28862	Nice	28862	DE-611	null	null
GND-7649445-7	Nicotera	7649445-7	GND	38.548888	15.935833
GAZ-2042894	Nil	2042894	GAZ	30.020098	31.220171
DE-611-55918	Nishni Nowgorod	55918	DE-611	null	null
DE-611-26726	Nocera	26726	DE-611	null	null
GAZ-2071626	Nola	2071626	GAZ	40.926929	14.527222
DE-611-56220	Noordwijk	56220	DE-611	null	null
GAZ-2749101	Norderney	2749101	GAZ	53.71535	7.24042
DE-611-28818	Náfplion	28818	DE-611	null	null
GAZ-2765502	Oberbozen	2765502	GAZ	46.527777	11.405555
GAZ-2069707	Odessa	2069707	GAZ	46.47747	30.73262
DE-611-28943	Offida	28943	DE-611	null	null
GND-1024971945	Ohne Ort	1024971945	GND	null	null
GAZ-2050934	Oldenburg (Oldenburg)	2050934	GAZ	53.140379	8.212941
GND-4454216-1	Olevano Romano	4454216-1	GND	41.860619	13.033089
DE-611-11341	Olympia	11341	DE-611	null	null
GAZ-2045067	Oranienbaum	2045067	GAZ	51.799167	12.406944
GAZ-2092379	Orléans	2092379	GAZ	47.90289	1.90389
DE-611-28969	Ortona	28969	DE-611	null	null
GAZ-2180915	Orvieto	2180915	GAZ	42.71924	12.11249
GAZ-2279218	Osnabrück	2279218	GAZ	52.27264	8.048513
GND-4044295-0	Padua	4044295-0	GND	45.41519	11.881809
GAZ-4137741-2	Palazzolo (Acreide)	4137741-2	GAZ	37.057254	14.894516
DE-611-3021919	Palazzolo sull'Oglio	3021919	DE-611	null	null
GAZ-2359599	Palermo	2359599	GAZ	38.13205	13.33561
DE-611-28996	Palestrina	28996	DE-611	null	null
GAZ-2050149	Parchim	2050149	GAZ	53.428164	11.847548
GAZ-2081915	Paris	2081915	GAZ	48.86107	2.32025
GAZ-2338726	Parma	2338726	GAZ	44.79935	10.32618
GAZ-2307594	Patras	2307594	GAZ	38.24444	21.73444
GAZ-2359580	Pavia	2359580	GAZ	45.184738	9.154621
GND-4075982-9	Pergamon	4075982-9	GND	null	null
GAZ-2180917	Perugia	2180917	GAZ	43.1122	12.38878
GAZ-2359581	Pesaro	2359581	GAZ	43.90921	12.9164
DE-611-3011456	Pforta	3011456	DE-611	null	null
DE-611-56338	Pforte	56338	DE-611	null	null
DE-611-26725	Piacenza	26725	DE-611	null	null
GAZ-2326747	Pisa	2326747	GAZ	43.70853	10.4036
GAZ-2359616	Pistoia	2359616	GAZ	43.932467	10.92144
GAZ-2338718	Pompeji	2338718	GAZ	40.751642	14.486162
GAZ-2750053	Popoli	2750053	GAZ	42.16866	13.82997
DE-611-26503	Porto	26503	DE-611	null	null
GAZ-2746500	Portoferraio	2746500	GAZ	42.81233	10.31297
GAZ-2338580	Potenza	2338580	GAZ	40.63858	15.804627
GAZ-2048849	Potsdam	2048849	GAZ	52.397414	13.058283
DE-611-3012801	Pozzuoli	3012801	DE-611	null	null
GAZ-2093361	Prag	2093361	GAZ	50.087444	14.42095
GAZ-2044667	Quedlinburg	2044667	GAZ	51.78843	11.15006
GND-4572404-0	Radicofani	4572404-0	GND	null	null
GAZ-2178759	Ravenna	2178759	GAZ	44.41344	12.20121
GAZ-2072955	Recanati	2072955	GAZ	43.40381	13.55379
GAZ-2315111	Reggio nell'Emilia	2315111	GAZ	44.69825	10.63125
GAZ-2749105	Rigi Scheidegg	2749105	GAZ	47.02683	8.51993
GAZ-2346936	Rimini	2346936	GAZ	44.05755	12.56528
GAZ-2180648	Rocca di Papa	2180648	GAZ	41.7658	12.70188
GND-2002209-8	Rolandseck	2002209-8	GND	null	null
GAZ-4050471-2	Rom	4050471-2	GAZ	41.89474	12.4839
GAZ-2323295	Rom	2323295	GAZ	41.89474	12.4839
GAZ-2765503	Rorschach	2765503	GAZ	47.478814	9.493842
GND-4288101-8	Rottach	4288101-8	GND	null	null
GAZ-2081087	Rouen	2081087	GAZ	49.44313	1.09932
GND-4235666-0	Royan	4235666-0	GND	45.628459	-1.0281
GAZ-2141902	Rudolstadt	2141902	GAZ	50.718066	11.334376
DE-611-29225	Ruvo di Puglia	29225	DE-611	null	null
GND-1169356192	Saint-Cyr-sur-Loire	1169356192	GND	47.4	0.666666
DE-611-29248	Salerno	29248	DE-611	null	null
GAZ-2345127	San Marino	2345127	GAZ	43.9367	12.4463
DE-611-27198	San Remo	27198	DE-611	null	null
DE-611-29280	San Severino Marche	29280	DE-611	null	null
DE-611-29281	San Severo	29281	DE-611	null	null
DE-611-29284	Sangerhausen	29284	DE-611	null	null
GND-4267026-3	Sankt Petersburg	4267026-3	GND	59.89444	30.26417
DE-611-29287	Sansepolcro	29287	DE-611	null	null
GAZ-2073226	Sarteano	2073226	GAZ	42.99193	11.86472
GAZ-2070535	Savignano sul Rubicone	2070535	GAZ	44.09009	12.39935
DE-611-56357	Schierstein	56357	DE-611	null	null
GAZ-2765548	Schleswig <Stadt>	2765548	GAZ	54.51494	9.56679
GND-1075603110	Schloss- und Parkanlage Sanssouci <Potsdam>	1075603110	GND	52.404166	13.038333
GND-4053783-3	Schwarzenbek	4053783-3	GND	53.50303	10.480549
GND-1022063154	Seifersdorf	1022063154	GND	51.159444	13.880833
GAZ-2345124	Selinunt	2345124	GAZ	37.582967	12.824505
GAZ-2765487	Selm-Cappenberg	2765487	GAZ	51.651278	7.539182
DE-611-29372	Senigallia	29372	DE-611	null	null
GAZ-2361218	Sevilla	2361218	GAZ	37.38283	-5.97317
GAZ-2067379	Siebenbürgen	2067379	GAZ	46.5	25.0
GND-4816315-6	Siebleben	4816315-6	GND	50.94265	10.746219
DE-611-26618	Siena	26618	DE-611	null	null
GAZ-2337546	Siena	2337546	GAZ	43.321187	11.329608
GAZ-4077464-8	Siros	4077464-8	GAZ	37.43333	24.91667
DE-611-35694	Sora	35694	DE-611	null	null
GAZ-2096371	Sorrent	2096371	GAZ	40.624042	14.37458
GND-4275011-8	Sorrento (Victoria, Staat)	4275011-8	GND	-38.31667	144.733329
GAZ-2053918	Split	2053918	GAZ	43.50891	16.43915
DE-611-29447	Spoleto	29447	DE-611	null	null
DE-611-20045	St. Jean de Luz b. Biarritz	20045	DE-611	null	null
DE-611-4710	St. Petersburg	4710	DE-611	null	null
GAZ-2073007	Stia	2073007	GAZ	43.79877	11.70894
GAZ-2044826	Stolberg/Harz	2044826	GAZ	51.573273	10.954919
GAZ-2096579	Straßburg	2096579	GAZ	48.58392	7.74553
GAZ-2046216	Stuttgart	2046216	GAZ	48.7825	9.17694
GAZ-2180653	Subiaco	2180653	GAZ	41.92619	13.08906
GAZ-2765550	Sulzbach-Soden	2765550	GAZ	49.922854	9.205214
GAZ-2345156	Syrakus	2345156	GAZ	37.073819	15.287476
GAZ-2338562	Tarquinia	2338562	GAZ	42.252848	11.758161
GAZ-2088714	Tartu	2088714	GAZ	58.38062	26.72509
GAZ-2320127	Teramo	2320127	GAZ	42.66123	13.69901
GAZ-2096845	Terni	2096845	GAZ	42.562978	12.646369
DE-611-29585	Terranova da Sibari	29585	DE-611	null	null
GAZ-2290413	Thira <Insel>	2290413	GAZ	36.39556	25.45917
DE-611-30190	Timişoara	30190	DE-611	null	null
GAZ-4060207-2	Tirol	4060207-2	GAZ	47.2573300771116	11.396255493164062
GAZ-2063015	Tirol	2063015	GAZ	47.2573300771116	11.396255493164062
DE-611-29599	Todi	29599	DE-611	null	null
GAZ-2072800	Tolfa	2072800	GAZ	42.15023	11.93216
DE-611-3012793	Torre Annunziata	3012793	DE-611	null	null
DE-611-30337	Toscanella	30337	DE-611	null	null
GAZ-2080898	Toulon	2080898	GAZ	43.123885	5.928771
GAZ-2077211	Toulouse	2077211	GAZ	43.60426	1.44367
GAZ-2097154	Triest	2097154	GAZ	45.64325	13.7903
GAZ-2097212	Turin	2097212	GAZ	45.07049	7.68682
GAZ-2046282	Tübingen	2046282	GAZ	48.52266	9.05222
GAZ-2051112	Uelzen	2051112	GAZ	52.96572	10.56111
GAZ-2065601	Uppsala	2065601	GAZ	59.85882	17.63889
GAZ-2072935	Urbino	2072935	GAZ	43.72621	12.63633
GAZ-2347832	Usedom	2347832	GAZ	53.93333	14.08333
GAZ-2073612	Vahrn	2073612	GAZ	46.73901	11.63749
GAZ-2361215	Valencia	2361215	GAZ	39.46975	-0.37739
GAZ-2425044	Valentano	2425044	GAZ	42.56377	11.82748
DE-611-29707	Velletri	29707	DE-611	null	null
GAZ-2097525	Venedig	2097525	GAZ	45.43713	12.33265
GAZ-2338753	Verona	2338753	GAZ	45.4299	10.98444
DE-611-29714	Vibo Valentia	29714	DE-611	null	null
GND-4119419-6	Vichy	4119419-6	GND	46.116669	3.416669
GAZ-2080717	Vienne	2080717	GAZ	45.51667	4.86667
DE-611-26144	Viterbo	26144	DE-611	null	null
GAZ-2326753	Volterra	2326753	GAZ	43.40251	10.86152
GAZ-2053243	Weimar	2053243	GAZ	50.9803	11.32903
DE-611-26761	Wells	26761	DE-611	null	null
GAZ-2044711	Wernigerode	2044711	GAZ	51.835833	10.776667
GAZ-2051994	Wesel	2051994	GAZ	51.65918	6.625434
GAZ-2733185	Wien	2733185	GAZ	48.2082	16.37169
DE-611-2660	Wien-Döbling	2660	DE-611	null	null
GAZ-2181108	Wiesbaden	2181108	GAZ	50.08258	8.24932
GAZ-2045073	Wittenberg	2045073	GAZ	51.866667	12.643333
GAZ-2051194	Wolfenbüttel	2051194	GAZ	52.162222	10.536944
GAZ-2045074	Wörlitz	2045074	GAZ	51.842701	12.418692
GAZ-2048407	Würzburg	2048407	GAZ	49.793023	9.936533
GAZ-2054039	Zadar	2054039	GAZ	44.11972	15.24222
GAZ-4748476-7	Zakynthos (Stadt)	4748476-7	GAZ	37.78798	20.898319
GAZ-2090501	Zürich	2090501	GAZ	47.36667	8.55
